site_name_pinyin,site_name2_traditional,site_name3_simplified,building_name_pinyin,building_name2_traditional,building_name3_simplified,building_name_in_site,building_in_site2_traditional,building_in_site3_simplified,group_批,number_in_group,number_in_architecture_category_3,building_name_en,alternate building_name_pinyin,alternate site_name_en,alternate_site_name_pinyin,alternate_site_name_traditional,alternate_site_name_simplified,alternate_site_name_pinyin2,alternate_site_name_traditional2,building_date,building_start,building_end,decimal_latitude,decimal_longitude,verbatim_latitude,verbatim_longitude,significance,most_recent_doc,notes,ct_angled_bracket_arm,corner_angled_bracket_arm,ic_angled_bracket_arm,ic_match_ct,#_of_ic_in_central_bay,pubaifang,1st_step_touxin,1st_step_jixin,cejiao,pizhu_xiaang,qinmian_xiaang,pizhu-qinmian_xiaang,number_of_xiaang,ang-shaped_shuatou,beveled_linggong,chamfered_linggong,front_facade_bays
"Name of building complex in pinyin romanization, if differentiated by placename, placename should be included in this category ",Name of building complex in traditional characters,Name of building complex in simplified characters,Name of individual structure; this refers to a building within a larger building complex; capitalized only if proper name,Name of individual structure in traditional characters,Name of individual strucutre in simplified characters,"Name of individual structure within a building complex. This category is most important when searching for a general structure carrying a common name (e.g. main hall, Daxiongbao Hall, etc.) so that the primary differentiating feature, and thus most common search term, is the name of the complex rather than the name of the building. Map this column to building in Flickr.",,,,,,,"This column is used to include alternate names for temple complexes; especially useful for building complexes where their names are differentiated primarily by placename (town, province, etc.)","This column is used to include alternate names for temple complexes; especially useful for building complexes where their names are differentiated primarily by placename (town, province, etc.)",,,,,,,,,,,,,,,,,,,,,,,,,,,,,,,,
Damiao,大廟,大庙,Feilaidian,飛來殿,飞来殿,Damiao_Feilaidian,大庙飞来殿,大庙飞来殿,3,114,62,Feilai_Hall, ,,,,,,,993-1327,993,1327,,,,,animal motifs on bracketing: likely a Yuan structure...,*,,,,,,,,,,,,,,,,,,
Yunyansi,雲岩寺,云岩寺,Douchuishan zhuanlun jingcang,竇圌山轉輪經藏,窦圌山转轮经藏,Yunyansi_Douchuishan_zhuanlun_cangjing,雲岩寺竇圌山轉輪經藏,云岩寺窦圌山转轮经藏,3,115,63,Yunyan_Monastery_Mount_Douchui_Revolving_Sutra_Repository, ,,,,,,,,,,,,,,song revolving sutra repository with angled bracket arms,*,,,,,,,,,,,,,,,,,,
Guangdesi,廣德寺,广德寺,Shanjita,善濟塔,善济塔,Guangdesi_Shanjita,廣德寺善濟塔,广德寺善济塔,6,703,406,Guangde_Monastery, ,,,,,,,,,,,,,,"no date information in ZGMSCD, 910; Song stele; see: http://baike.baidu.com/view/113543.htm",n/a?,,,,,,,,,,,,,,,,,,
Qufu_Kongmiao,曲阜孔廟,曲阜孔庙,xibeiting,西碑亭,西碑亭,Qufu_Kongmiao_xibeiting,曲阜孔廟西碑亭,曲阜孔庙西碑亭,1,99,52,Qufu_Confucius_Temple_West_Pavilion,Qufu_Kongmiao_Xibeiting,Qufu_Temple of Confucius,,,,,,1195,1195,1195,35.5955833,116.98405,,,,*,,0,0,0,1,2,1,0,1,1,0,1,0,1,0,0,1,
Qufu_Kongfu,曲阜孔府,曲阜孔府, , , , , , , , , , , , ,,,,,,1195,1195,1195,35.5955833,116.98405,,,,*,,0,0,0,1,2,1,0,1,1,0,1,0,1,0,0,1,
Taian_Daimiao,泰安岱廟,泰安岱庙,Tianzhudian,天祝殿,天祝殿,Taian_Daimiao_Tianzhudian,泰安岱廟天祝殿,泰安岱庙天祝殿,3,125,73,Tai'an_Temple_to_the_Eastern Peak_Shandong, Tai'an_Temple_to_the_Eastern_Peak_Prayers_to_Heaven_Hall,,,,,,,,,,,,,,"originally built in 1009, modified numerous times. Wall paintings in Song style=ZGMSCD, 626",*,,,,,,,,,,,,,,,,,,
Lingyansi,靈岩寺,灵岩寺,Pizhita,辟支塔,辟支塔,Lingyansi_Pizhita,靈岩寺辟支塔,灵岩寺辟支塔,2,21,6,Lingyan_Monastery_Solitary_Pagoda,Lingyan_Monastery_Pratyeka_Pagoda,Shandong_Tai'an_Lingyan_Monastery,,,,,,1057,1057,1057,36.3632666,116.977683,,,Song dynasty; corner bracket sets on front facade,fall 2009,for date see: zgmscd 585,1,1,1,0,3,1,0,1,？,0,0,0,0,0,0,1,
Wanrong_Jiwangmiao,萬榮稷王廟,万荣稷王庙,"dadian
","大殿
","大殿
",Wanrong_Jiwangmiao_dadian,萬榮稷王廟大殿,万荣稷王庙大殿,5,224,30,Jiwang_Temple_in_Wanrong,Jiwangmiao_Main_Hall,,,,,,,,,,,,,,,1998,,,,,,,,,,,,,,,,,,
Xiangning_Shoushengsi,鄉寧壽聖寺,乡宁寿圣寺,zhengdian, 正殿, ,Xiangning_Shoushengsi_zhengdian,鄉寧壽聖寺,乡宁寿圣寺,6,379,82,Shousheng_Monastery_in_Xining ,Shoushengsi_Main_Hall,,,,,,,1049,1049,1125,,,,,"Main Hall Song? See 中國 文物 地圖集 山西分冊, 下, 978; http://baike.baidu.com/view/2020840.htm",*,,,,,,,,,,,,,,,,,,
Xiangning_Shoushengsi,鄉寧壽聖寺,乡宁寿圣寺,zhonglou,鐘樓, ,Xiangning_Shoushengsi_zhonglou,鄉寧壽聖寺,乡宁寿圣寺,6,379,82,Shousheng_Monastery_in_Xining ,Shoushengsi_bell_tower,,,,,,,1234-1368,1234,1368,,,,,Bell tower Yuan? See: http://baike.baidu.com/view/2020840.htm,*,,,,,,,,,,,,,,,,,,
Yanqingsi,延慶寺,延庆寺,dafodian,大佛殿,大佛殿,Yanqingsi_Dafodian,延慶寺大佛殿,延庆寺大佛殿,6,381,84,Yanqing_Monastery_Great_Buddha_Hall, ,,,,,,,1115-1234,1115,1234,38.7483333,113.0625,38˚ 44.90' N (Magellan),113˚ 03.75' E,"中國 文物 地圖集 山西分冊,中 580",1999?,,0,0,1,0,1,1,0,1,1,0,0,1,1,1,1,,
Nanchansi,南禪寺,南禅寺,dadian,大殿,大殿,Nanchansi_dadian,南禪寺大殿,南禅寺大殿,1,79,32,Nanchansi_Great Hall,Dadian,Zhengdian,,,,,,782,782,782,38.7013333,113.114,38˚ 42.08' N (Magellan),113˚ 06.84 E,early timber architecture,1999,,0,0,0,0,0,0,1,0,1,0,0,0,0,0,0,0,
Foguangsi,佛光寺,佛光寺,dongdadian,東大殿,東大殿,Foguangsi_dongdadian,佛光寺東大殿,佛光寺東大殿,1,80,33,Great East Hall,Dongdadian,,,,,,,857,857,857,38.8695,113.387333,38˚ 52.14' N (Magellan),113˚ 23.22 E,857 early diantang,1999,,0,0,0,0,1,0,1,0,1,1,0,0,2,0,0,1,
Foguangsi,佛光寺,佛光寺,Wenshudian,文殊殿,文殊殿,Foguangsi_Wenshudian,佛光寺文殊殿,佛光寺文殊殿,1,80,33,Mañjuśrī Hall,Wenshudian,,,,,,,1137,1137,1137,38.8695,113.387333,38˚ 52.14' N (Magellan),113˚ 23.22 E,"1137 early Jin dynasty, use of xiegong in central bay; cloud-shaped arm  instead of guazigong makes ct brackt sets jixin; lingong single timber across façade but made to look beveled",1999,lat/long from Dongdadian,0,0,1,0,1,1,1,1,,0,0,1,1,1,1,0,
Sanjunmiao,三峻廟,三峻庙,zhengdian, 正殿,正殿,Sanjunmiao_zhengdian,三峻庙, ,5,261,67,Sanjun Temple,Sanjunmiao,,,,,,,1175,1175,1175,36.03716667,113.6121667,36˚ 2.23'N (Garmin),113˚ 9.73'E,"Main Hall from 1175, see; 中國 文物 地圖集 山西分冊, 中, 336",*,,0,0,0,0,0,1,0,1,1,0,1,0,1,0,0,1,
Shanhuasi,善化寺 ,善化寺,Tianwangdian,天王殿,天王殿,Shanhuasi_Tianwangdian,善化寺 ,善化寺 ,1,88,41,Tianwang Hall,Tianwangdian,,,,,,,1128-1143,1128,1143,40.0854,113.293533,40˚ 05.124' N (Garmin),113˚ 17.612 E ',Shanmen--天會六－皇統三 (1128-1143),2009,,0,0,0,1,2,1,0,1,,0,1,0,1,0,0,1,
Shanhuasi,善化寺 ,善化寺,Sanshengdian,三聖殿,三聖殿,Shanhuasi_Sanshengdian,善化寺 三聖殿,善化寺 三聖殿,1,88,41,Sansheng Hall,Sanshengdian,"Hall of Three Sages: Vairocana, Manjusri and Samantabhadra",,,,,,1128-1143,1128,1143,40.0857166,113.29345,40˚ 05.143’ N,113˚ 17.607' E,"天會六－皇統三 (1128-1143, linggong for angled bracket arm is angled",,,0,0,1,0,2,1,0,1,,0,1,0,2,0,1,1,
Shanhuasi,善化寺,善化寺,Puxiange,普賢閣,普賢閣,Shanhuasi_Puxiange,善化寺普賢閣,善化寺普賢閣,1,88,41,Puxian Pavilion,Puxiange,,,,,,,1154,1154,1154,40.0859333,113.293333,40˚ 05.156' N,113˚ 17.600' E,1154; column-top match ic on lower eaves,,,0,1,1,1,1,1,0,1,,0,0,0,0,0,0,1,
Shanhuasi,善化寺,善化寺,Daxiongbaodian,大雄寶殿,大雄寶殿,Shanhuasi_Daxiongbaodian,善化寺大雄寶殿,善化寺大雄寶殿,1,88,41,Daxiong Trearure Hall (Mahavira Hall),Daxiongbaodian,,,,,,,1000-1143,1000,1143,40.0862833,113.293166,40˚ 05.177 N,113˚ 17.590' E,遼; renovated (重修) during 1128-1143 reconstruction， angled bracket arme on e and w; linggong on these bevelled backwards,,,0,0,1,0,1,1,0,1,,0,0,0,0,0,1,1,
Huayansi,華嚴寺 ,华严寺,Xiasi_Boqiejiaozangdian,下寺薄伽教藏殿,下寺薄伽教藏殿,Huayansi_Xiasi_Boqiejiaozangdian,華嚴寺 下寺薄伽教藏殿,华严寺 下寺薄伽教藏殿,1,91,44,Lower Monastery Bhagavat Sutra Hall,Xiasi_Boqiejiaozangdian,,,,,,,1038,1038,1038,40.0905166,113.288533,40˚ 05.431' N (Garmin),113˚ 17.312' E,1038,,,0,1,0,0,1,1,0,1,,0,0,0,0,0,0,1,
Huayansi,華嚴寺,华严寺,Shangsi_Daxiongbaodian,上寺大雄寶殿,上寺大雄寶殿,Huayansi_Shangsi_Daxiongbaodian,華嚴寺 上寺大雄寶殿,华严寺上寺大雄寶殿,1,91,44,Upper Monastery Daxiong Treasure Hall,Shangsi Daxiongbaodian,,,,,,,1140,1140,1140,40.09125,113.287433,40˚ 05.475' N (Garmin),113˚ 17.246' E,1140,2009,,0,1,1,0,1,1,0,1,,0,0,0,0,0,0,1,
Jinci,晋祠,晋祠,Shengmudian,聖母殿,聖母殿,Jinci_Shengmudian,晋祠聖母殿,晋祠聖母殿,1,85,38,Sage Mother Hall,Shengmudian,,,,,,,1038-1087,1038,1087,37.708727,112.434575,37˚ 42.25' E  N (Garmin),112˚ 26.43' E,Shengmudian 1038-1087-local and trans-local types of bracketing,2006?,,0,0,0,0,1,1,0,1,1,0,1,1,1,1,0,1,
Jinci,晋祠,晋祠,Xiandian,獻殿,獻殿,Jinci_Xiandian,晋祠獻殿,晋祠獻殿,1,85,38,Offering Hall,Xiandian,,,,,,,1168,1168,1168,37.7085556,112.435,37˚ 43.99' N (Garmin),112˚ 33.70' E,Jin 1168-local and trans-local types of bracketing,2006?,,0,0,0,0,1,1,0,1,1,0,1,1,1,1,0,1,
Anchansi,安禪寺,安禅寺,Cangjingdian,藏經殿,藏经殿,Anchansi_Cangjingdian,安禪寺藏经殿,安禅寺藏经殿,6,360,63,Sutra Hall,Cangjingdian,,,,,,,960-1125,960,1125,37.42453333,112.5473333,37˚ 25.472 (Garmin),112˚ 32.840,"sutra repository Song, compare to Jidumiao qingong",2010,ZGWWDTJ  山西 p. 762    57 – C 1  -other parts of the monastary have been destroyed,0,0,0,0,1,1,0,1,1,0,0,0,0,0,0,1,3
Zhenshengsi,真聖寺,真圣寺,zhengdian,真聖寺,真圣寺,Zhenshengsi_zhengdian,真聖寺,真圣寺,6,388,Ⅲ－91,Zhensheng Monastery,Zhenshengsi,,,,,,,1157,1157,1157,,,,,Main Hall from Jin; 1157. See: http://www.huaxia.com/zhsx/sxsy/wwzy/12/1260249.html;https://zh.wikipedia.org/wiki/%E7%9C%9F%E5%9C%A3%E5%AF%BA,*,,,,,,,,,,,,,,,,,,
Dingxiang_Guanwangmiao,定襄關王廟,定襄关王庙,wuliangdian?,無梁殿, ,Guanwangmiao_wuliangdian,定襄關王廟無梁殿,定襄关王庙,6,368,Ⅲ－71,Beamless Hall,,,,,,,,1208,1208,1208,,,,,"1208 關王殿； see: 中國 文物 地圖集 山西分冊, 中, 571-572 ",*,,,,,,,,,,,,,,,,,,
Hongfusi,洪福寺,洪福寺,zhengdian,洪福寺正殿,洪福寺正殿,Hongfusi_Zhengdian,洪福寺正殿,洪福寺正殿,5,251,57,Main Hall,Zhengdian,,,,,,,1096-1125,1096,1125,38.62949167,113.0524611,"38°37'46.17""(google earth-satellite)","113°03'08.86""",stele inscription documenting repair in the Tianhui period (1123-1138) see: 中國 文物 地圖集 山西分冊，中，571,1998,,0,0,1,0,1,1,0,0,,0,0,1,1,1,1,0,
Puguangsi,普光寺,普光寺,zhengdian, , ,Puguangsi_zhengdian,普光寺,普光寺,6,358,Ⅲ－61,Puguang Monastery Main Hall,Puguangsi,,,,,,,960-1125,960,1125,,,,,"main hall from Song, hip-gable converted to gable; https://zh.wikipedia.org/wiki/%E6%99%AE%E5%85%89%E5%AF%BA_(%E5%AF%BF%E9%98%B3)",*,,,,,,,,,,,,,,,,,,
Zhenguosi,鎮國寺,镇国寺,Wanfodian,萬佛殿,万佛殿,Zhenguosi_Wanfodian,镇国寺万佛殿,镇国寺万佛殿,3,111,59,"10,000 Buddhas Hall",Wanfodian,,,,,,,963,963,963,37.25298611,112.248006,"37˚ 15' 10.75"" N (google earth-Xu, no satellite)",112˚ 14’52。82”E,continuation of style at Foguangsi into 10th cen.,1997,,0,0,0,0,1,0,1,0,1,1,0,0,2,0,0,1,
Cixiangsi,慈相寺,慈相寺,zhengdian,正殿,正殿,Cixiangsi_Zhengdian,慈相寺正殿,慈相寺正殿,5,239,45,Main Hall,Zhengdian,,,,,,,1125-1234,1125,1234,37.23389444,112.2438056,"37˚14' 02.02"" N (fuzzy satellite following 赝能隙 photo)","112˚ 14' 37.72""","main hall jin, pagoda Song, bad photos so data needs confirmation",1997,,0,0,0,1,1,1,0,1,,0,1,0,1,0,?,?,
Wenmiao,平遙文廟,平遥文庙,Dachengdian,大成殿,大成殿,Pingyao_Wenmiao,平遙文廟,平遥文庙,5,240,46,Dacheng Hall,Dachengdian,,,,,,,1163,1163,1163,37.195,112.19,37˚ 11.7' N (Magellan),112˚ 11.4' E,first step is made jixin with a cloud-shaped bracket arm,"1997, 2004",,0,0,0,0,0,1,0,1,,0,1,0,2,0,0,1,
Tiantaian,天台庵,天台庵,zhengdian,正殿,正殿,Tiantaian,天台庵,天台庵,3,107,55,Main Hall,Zhengdian,,,,,,,618-907,618,907,36.38344,113.3922133,"36˚ 23' 00.64"" N (google earth Cui Jinze)","113˚ 23' 53.28"" E",probably late Tang based on style,1997,,0,0,0,0,1,0,1,0,,0,0,0,0,0,0,0,
Dayunyuan,平顺大雲院,大云院,Dafodian, 大佛殿, ,Dayunyuan_Dafodian,大雲院大佛殿,大云院,3,112,60,Amitābha Hall,Mituodian, Xianyan Cloister,Xianyanyuan,仙岩院,,Dayunchanyuan,大雲禪院,940,940,940,36.35619167,113.4353267,"36˚ 21' 37.15"" N ( google earth-Cui Junze, no satellite)","113˚ 26' 11.96"" E",10th cen compare to Jidumiao Qingong,1997,,0,0,0,1,1,1,1,0,,0,0,0,0,0,0,1,
Longmensi,龍門寺,龙门寺,Tianwangdian,天王殿,天王殿,Longmensi_Tianwandian,龍門寺天王殿,龙门寺天王殿,4,92,14,Tianwang Hall,Tianwandian, ,,,,,,1125-1234,1125,1234,36.3896666,113.622666,36˚ 23.38' N (Magellan),113˚ 37.36' E,Jin dynasty with fan brackets,1999,,0,0,1,0,1,1,0,1,1,0,1,0,1,0,1,0,
Longmensi,龍門寺,龙门寺,Xipeidian,西配殿,西配殿,Longmensi_Xipeidian,龍門寺西配殿,龙门寺西配殿,4,92,14,West Side Hall,Xipeidian,Cixiang Monastery,,,,,,925,925,925,36.387495,113.6201617,"36˚ 23' 24.97"" N (google earth-satellite)","113˚ 37' 20.97"" E ",925: earliest subsidiary building,,,0,0,0,0,0,0,1,0,,0,0,0,0,0,0,1,
Longmensi,龍門寺,龙门寺,Daxiongbaodian,大雄寶殿,大雄宝殿,Longmensi_Daxiongbaodian,龍門寺大雄宝殿,龙门寺大雄宝殿,4,92,14,Daxiong Trearure Hall (Mahavira Hall),Daxiongbaodian,Wen Temple in Pingyao,,,,,,1098,1098,1098,36.38750833,113.620255,"36˚ 23' 25.05"" N (google earth-satellite)","113˚ 37'21.53 ""E",Song dynasty--eleventh century typical of Shangdang,,,0,0,0,0,0,1,0,1,1,0,0,1,1,1,1,0,
Fotousi,佛頭寺,佛头寺,Zhengdian,正殿,正殿,Fotousi_Zhengdian,佛頭寺正殿,佛头寺正殿,6,366,69,Great Hall,Zhengdian,Tiantai Hermitage ,,,,,,,,,36.3581667,113.5761333,36˚ 21.490' (Garmin),113˚ 34.568',"Great Hall Song-Jin structure; see: 中國文物地圖集山西分冊, 中, 305 ",2010,,0,0,1,0,1,1,0,1,1,0,1,0,2,1,1,0,
Chunhuasi,淳化寺,淳化寺,Zhengdian,正殿,正殿,Chunhuasi_Zhengdian,淳化寺正殿,淳化寺正殿,5,236,42,Great Hall,Zhengdian,Dayun Cloister,,,,,,,,,36.3532333,113.5862,36˚ 21.194'N (Garmin),113˚ 35.172',,2010,,0,0,0,0,0,1,0,1,?,0,1,1,1,0,1,0,
Jiutianshengmumiao,九天聖母廟,九天圣母庙,jiutianshengmumiao,九天聖母廟,九天圣母庙,Jiutianshengmumiao,九天聖母廟,九天圣母庙,5,238,44,,Jiutianshengmumiao,Longmen Monastery,,,,,,,,,36.22523333,113.3374167,36 13.514' (Garmin),113˚ 20.245',,2010,,0,0,0,1,1,1,0,1,1,0,1,0,1,0,0,1,
Huilongsi,回龍寺,回龙寺,Huilongsi,回龍寺,回龙寺,Huilongsi,回龍寺,回龙寺,6,393,96,,Huilongsi,Fotou Monastery ,,,,,,,,,,,,,Main Hall Jin; see: http://www.sxcr.gov.cn/wmsx/show.php?itemid=1100,*,,,,,,,,,,,,,,,,,,
Fogongsi,佛宮寺釋迦塔（應縣木塔）,佛宫寺释迦塔（应县木塔）,Shijiata (Yingxian Muta),釋迦塔（應縣木塔）,释迦塔（应县木塔）,Fogongsi_Shijiata (Yangxian_Muta),佛宫寺释迦塔（应县木塔）,佛宫寺释迦塔（应县木塔）,1,71,24,Śākyamuni Timber Pagoda,Sijiata (Muta),Chunhua Monastery ,,,,,,1056-1095,1056,1095,39.5650166,113.1817,39˚ 33.901' N (Garmin),113˚ 10.902 E,"northern pagodas and development of xiegong;pingzuo bracket sets jixin on first step, eaves touxin ",2009,,1,1,1,0,1,1,1,1,1,1,0,0,2,0,0,1,
Jingtusi,淨土寺,净土寺,Jingtusi,淨土寺,净土寺,Jingtusi,净土寺,净土寺,6,398,101,,Daxiongbaodian,Jiutianshengmu Temple,,,,,,1184,1184,1184,39.5665166,113.1876,39˚ 33.997' N (Garmin),113˚ 11.256˚ E,,2009,,0,0,0,1,2,1,0,1,,0,1,0,1,0,0,1,
Jindongsi,金洞寺,金洞寺,Jindongsi,轉角殿,轉角殿,Jindongsi_Zhuanjiaodian,金洞寺轉角殿,金洞寺转角殿,6,359,62,Corner Hall,Jindongsi,Huilong Monastery,,,,,,960-1125,960,1125,,,,,,1999,,0,0,0,0,0,1,1,0,？,1,0,0,1,1,0,1,
Zetianmiao,則天廟,则天庙,Zetianmiao,則天廟,则天庙,Zetianmiao,則天廟,则天庙,4,100,22,,Zetianmiao,Fogong Monastery,,,,,,1125-1234,1125,1234,37.47303833,112.0361283,"37°28'38.23""(google earth-satellite， zetsubouphoto","112°02'16.77""",,1999,,0,0,0,0,0,1,1,1,？,0,0,1,1,1,0,1,
Baitaisi,白台寺,白台寺,Shijiadian,釋迦殿,释迦殿,Baitaisi_Shijiadian,白台寺释迦殿,白台寺释迦殿,6,372,75,"Gujiaozhen, Guangmacun",Shijiadian,Jingtu Monastery,,,,,,1190-1196,1190,1196,35.66366667,111.0694,35˚ 39.820' (garmin),111˚ 4.164',"Shijiadian from Jin Mingchang period (1190-1196) see: 中國 文物 地圖集山西分冊, 下, 1099 ",*2010,"Axis: c, roof style: h/g, front façade: 31' 3"",3 bays, side: 31' 4"" 3 bays",0,0,0,0,1,1,0,1,1,0,1,0,1,0,0,1,
Baitaisi,白台寺,白台寺,Sandifacangdian,三滴法藏閣,三滴法藏阁,Baitaisi_Sandifacangdian,白台寺三滴法藏閣,白台寺三滴法藏阁,,,,Sandi facang Pavilion ,Sandi facangdian,Jindong Monastery,,,,,,1279-1368,1279,1368,35.66345,111.0694,35° 39.807' (±17ft),111° 4.164',,2010,"Axis: c, roof style: o-g, front façade: 36' 5""",,,,,,,,,,,,,,,,,
Baitaisi,白台寺,白台寺,Houdadian,后大殿,后大殿,Baitaisi_Houdadian,白台寺后大殿,白台寺后大殿,,,,Back Great Hall,Houdadian,Zetian Temple,,,,,,1279-1368,1279,1368,35.663933,111.06937,35° 39.836' (±17ft),111° 4.162' (±17ft),,2010,"Axis: c, roof style: o-g, front façade: 60', side: 25' 9""",,,,,,,,,,,,,,,,,
Qingliansi,青莲寺,青莲寺,Zhengdian,正殿,正殿,Qingliansi_Zhengdian,青莲寺正殿,青莲寺正殿,3,110,58,Main Hall Song,Zhengdian,Baitai Monastery,,,,,,1089,1089,1089,35.45525666,112.98687,"35˚ 27' 31.54"" N (google earth-satellite)","112˚ 59' 21.22"" E",a regional style in the 11th century,1997,,0,0,0,0,0,1,0,1,1,0,0,1,1,1,0,1,
Qingliansi,青蓮寺,青莲寺,Cangjingge,藏經閣,藏经阁,Qingliansi_Cangjingge,青莲寺藏经阁,青莲寺藏经阁,3,110,58,Sutra Repository Song w/ Qing modification,Cangjingge,Qinglian Monastery,,,,,,1089-1911?,1089,1911,35.45511,112.9869033,"35˚ 27' 30.66"" N (google earth-satellite)","112˚ 59' 21.42"" E ",lower story first step jixin--part of later modification?,,,0,0,0,0,1,1,1,1,?,0,0,?,1,0,,,
Yuhuangmiao,玉皇廟,玉皇庙,Houdian,后殿,后殿,Yuhuangmiao_Houdian,玉皇廟后殿,玉皇庙后殿,3,113,61,Back Hall,Houdian,Yuhuang Temple,,,,,,1076,1076,1076,35.54693333,112.93665,35˚ 32' 34.51 N (google earth),"112˚ 56' 32.81"" E","back hall late 11th century, bracketing style similar to SMD",,,0,0,0,0,1,1,0,1,,,,,,,,,
Jincheng,晉城二仙廟,晋城二仙庙,Erxianmiao,二仙廟,二仙庙,Jincheng_Erxianmiao,晉城二仙廟,晋城二仙庙,4,97,19,Main Hall,Erxianmiao,Erxian Temple in Jincheng ,,,,,,1107-1117,1107,1117,35.496,112.9725,35˚ 29.76' N (Magellan),112˚ 58.35' E,"touxin on corner, jixin on frt facade",2004,,0,0,0,0,0,1,1,1,1,0,1,0,1,1,1,0,
Dabeiyuan,大悲院,大悲院,Guodian,過殿,過殿,Dabeiyuan_Guodian,大悲院過殿,大悲院過殿,5,242,48,,Guodian,Dabei Cloister,,,,,,1180,1180,1180,35.73436667,111.5450667,35˚ 44.602 (Garmin),111˚ 32.704,,2010,,,,,,,,,,,,,,,,,,
Chongfusi,崇福寺,崇福寺,Mituodian,彌陀殿,弥陀殿,Chongfusi_Mituodian,崇福寺彌陀殿,崇福寺弥陀殿,3,117,65,Amitabha Hall (Mituo Hall),Mituodian,Chongfu Monastery,,,,,,1143,1143,1143,39.31522222,112.432347,"39˚ 18' 54.80"" N (google earth-fuzzy satellite)","112˚ 25' 56.45"" E",celebration of angled bracket arm variety; angled bracket arm in back central bay,1998,,1,1,0,1,1,1,0,1,1,0,0,1,2,1,1,0,
Chongfusi,崇福寺,崇福寺,Guanyindian,觀音殿,观音殿,Chongfusi_Guanyindian,崇福寺观音殿,崇福寺觀音殿,3,117,65,Avalokitêśvara Hall (Guanyin Hall),Guanyindian,Fuyang Monastery,,,,,,1143,1143,1143,39.31522222,112.432347,"39˚ 18' 54.80"" N (google earth-fuzzy satellite)","112˚ 25' 56.45"" E",celebration of angled bracket arm variety,1998,GIS for site only,0,0,0,0,2,1,0,1,1,0,0,1,1,1,0,1,
Fuyangsi,福祥寺,福祥寺,Fuyangsi,福祥寺,福祥寺,Fuyangsi,福祥寺,福祥寺,6,385,88,,Fuyangsi,Hongji Cloister,,,,,,,,,,,,,"Daxiongbaodian Jin: see 中國 文物 地圖集 下, 718.",*,,,,,,,,,,,,,,,,,,
Hongjiyuan,洪濟院,洪济院,Hongjiyuan,洪濟院,洪济院,Hongjiyuan,洪济院,洪濟院,5,252,58,Main Hall (Jin),Hongjiyuan,Dayun Monastery in Wuxiang,,,,,,1115-1234,1115,1234,36.9830166,112.66555,36˚ 58.981 N (Garmin),112˚ 39.933 E,,2009,,0,0,0,1,1,1,0,1,1,0,1,0,1,0,0,1,
Dayunsi,武鄉縣大雲寺,武乡县大云寺,Sanfodian,三佛殿,三佛殿,Wuxiang_Dayunsi_Sanfodian,武鄉縣大雲寺三佛殿,武乡县大云寺三佛殿,5,253,59,Three Buddha,Dayunsi Sanfodian,Huixian Belvederi ,,,,,,960-1125,960,1125,36.9410666,112.6609,36˚ 56.493 N (Garmin),112˚ 39.657 E,,2009,,0,0,0,0,0,1,0,1,1,0,1,,0,,0,1,
Huixianguan,會仙觀,会仙观,Huixianguan,三清殿,三清殿,Huixianguan,會仙觀,会仙观,5,254,60,,Sanqingdian,Taifu Belvederi ,,,,,,1115-1234,1115,1234,36.7518166,113.038883,36˚ 45.109' N (Garmin),113˚ 02.333 E,column top xiaang in central bay--seems later than Jin?,2009,,1,0,0,0,0,1,0,1,,0,1,,2,,1,0,
Taifuguan,太符觀,太符观,Taifuguan,太符觀,太符观,Taifuguan,太符觀,太符观,5,243,49,Main Hall,Taifuguan,Puzhao Monastery,,,,,,1115-1234,1115,1234,37.3446111,111.9174667,"37˚ 20' 40.60"" N (google earth-satellite)","111˚ 55' 02.88"" E",,1998,,0,0,0,0,1,1,0,1,？,0,0,0,0,0,1,0,
Puzhaosi,普照寺,普照寺,Dadian,大殿,大殿,Puzhaosi_Dadian,普照寺大殿,普照寺大殿,6,394,97,Great Hall Jin dynasty,Dadian,Dayun Cloister in Qinxian,,,,,,1115-1234,1115,1234,36.7457833,112.653316,36˚ 44.747 N (Garmin)36˚ 44.747 N (Garmin),112˚ 39.199 E,,2009,,0,0,1,0,1,0,0,1,1,0,1,0,1,1,1,1,
Dayunyuan,沁縣大雲院,沁县大云院,Dayunyuan,大雲院,大云院,Qinxian_Dayunyuan,沁縣大雲院,沁县大云院,5,244,50,Main Hall,Dayunyuan,Yuhuang Temple in Beiyicheng,,,,,,1115-1234,1115,1234,36.7477,112.5745,36˚ 44.862' N (Garmin),112˚ 34.478' E,,2009,,0,0,0,0,0,1,0,1,1,0,0,0,0,0,1,0,
Yuhuangmiao,北義城玉皇廟,北义城玉皇庙,Zhengdian,正殿,正殿,Beiyicheng_Yuhuangmiao_Zhengdian,北義城玉皇廟正殿,北义城玉皇庙正殿,6,363,66,Main Hall,Yuhuangmiao,Dongyue Temple in Zhoucun,,,,,,1110,1110,1110,38.488,112.948133,35˚ 38.488 N (Garmin),112˚ 56.888 E,,2009,,,,,,,,,,,,,,,,,,
Dongyuemiao,周村東岳廟,周村东岳庙,Zhengdian,正殿,正殿,Zhoucun_Dongyuemiao_Zhengdian,周村东岳廟正殿,周村东岳庙正殿,6,364,67,Main Hall,Dongyuemiao,Dai Temple in Zezhou,,,,,,,,,35.47615,112.620216,35˚ 28.569 N (Garmin),112˚ 37.213 E,,2009,,0,0,0,0,0,1,0,1,?,0,1,0,1,0,1,0,
Dongyuemiao,周村東岳廟,周村东岳庙,Caishendian,財神殿,财神殿,Zhoucun_Dongyuemiao_Caishendian,周村东岳廟财神殿,周村东岳庙财神殿,6,364,67,God of Wealth Hall,Dongyuemiao,Dayun Monastery in Jingzhuang,,,,,,,,,35.4762,112.6204833,35˚ 28.572 N (Garmin),112˚ 37.229 E,ang and ang-shaped shuatou are only on corners,,,0,0,0,0,0,1,0,1,,0,1,0,1,1,1,0,
Daimiao,澤州岱廟,泽州岱庙,Tianqidian,天齊殿,天齐殿,Zezhou_Daimiao_Tianqidian,泽州岱庙天齐殿,泽州岱庙天齐殿,5,263,69,,Daimiao Tianqidian,Hutu Temple,,,,,,1079,1079,1079,35.41921667,112.7244167,35˚ 25.153' (Garmin),112˚ 43.465',,2010,,0,0,0,1,1,1,0,1,1,0,1,0,2,0,0,1,
Dayunsi,荊庄大雲寺,荆庄大云寺,Daxiongbaodian,大雄寶殿,大雄宝殿,Jingzhuang_Dayunsi_Daxiongbaodian,荆庄大云寺大雄宝殿,荆庄大云寺大雄宝殿,5,230,36,,Dayunsi Daxiongbaodian,Longwang Temple in Dongyi,,,,,,,,,,,,,,*,,,,,,,,,,,,,,,,,,
Hutumiao,狐突廟,狐突庙,Hutumiao,狐突廟,狐突庙,Hutumiao,狐突庙,狐突庙,6,362,65,,Hutumiao,Yuanqi Temple,,,,,,,,,,,,,really song?,1999,,,,,,,,,,,,,,,,,,
Longwangmiao,東邑龍王廟,东邑龙王庙,Longwangmiao,大殿,大殿,Dongyi_Longwangmiao_Dadian,东邑龙王庙大殿,东邑龙王庙大殿,6,378,81,,Longwangmiao,Dongyue Temple in Xingdongyuan,,,,,,1125-1234,1125,1234,36.29381667,113.25975,36˚17.629 (Garmin),113˚ 15.585',"Main Hall Jin, see 中國 文物 地圖集 山西分冊, 中, 240",*,,0,0,1,0,1,1,0,1,1,0,1,0,2,1,1,0,
Yuanqisi,原起寺,原起寺,Yuanqisi,原起寺,原起寺,Yuanqisi,原起寺,原起寺,5,276,82,,Yuanqisi,Guangfan Monastery,,,,,,960-1125,960,1125,36.35326667,113.4258,36˚ 21.196' (Garmin),113˚ 25.548',,2010,,0,0,0,0,0,0,1,0,?,0,0,0,0,1,0,0,
Dongyuemiao,興東垣東岳廟,兴东垣东岳庙,Dongyuemiao,東岳廟,东岳庙,Xingdongyuan_Dongyuemiao,兴东垣东岳庙,兴东垣东岳庙,5,241,47,,Dongyuemiao,Yanshan Monastery,,,,,,,,,,,,,,*,,,,,,,,,,,,,,,,,,
Guangfansi,興梵寺,兴梵寺,Guangfansi,興梵寺,兴梵寺,Guangfansi,兴梵寺,兴梵寺,6,367,Ⅲ－70,,Guangfansi,Taiyin Monastery,,,,,,960-1125,960,1125,37.39033333,112.4500667,,,"Main Hall Song structure; see: 中國文物地圖集山西分冊, 下, 775 ",*,,,,,,,,,,,,,,,,,,
Yanshansi,岩山寺,岩山寺,Yanshansi,文殊殿 also 南殿,文殊殿 also 南殿,Yanshansi_Wenshudian,岩山寺文殊殿,岩山寺文殊殿,2,23,8,Mañjuśrī Hall,Yanshansi,Wang Temple in Guangren,,,,,,1158,1158,1158,39.22918056,113.6534333,"39˚ 13’ 45.05"" N (google earth)","113˚ 39' 12.36"" E","1158 simple building,single xia'ang, ct and ic the same ",1999,,0,0,0,1,1,1,0,1,1,0,1,0,1,0,1,0,
Taiyinsi,太陰寺,太阴寺,Daxiongbaodian,大雄寶殿,大雄宝殿,Taiyinsi_Daxiongbaodian,太阴寺大雄宝殿,太阴寺大雄宝殿,5,260,66,,Daxiongbaodian,Chenghuang Temple in Ruicheng,,,,,,1170,1170,1170,35.49343333,111.6487167,35˚ 29.606' (Garmin),111˚ 38.923',"Daxiongbaodian from Jin repair, see: 中國 文物 地圖集 山西分冊,下,p.1148",2010,,0,0,0,1,1,1,0,1,1,1,0,1,2,0,0,1,
Wangmiao,廣仁王廟,广仁王庙,Wangmiao,王廟,王庙,Guangren_Wangmiao,广仁王庙,广仁王庙,5,248,54,,Guangrenwangmiao,Wang Temple in Zhaoze,,,,,,831,831,831,34.73344722,110.677217,"34˚ 44’ 00.41"" N (google earth)","110˚ 40' 37.98"" E",identified with Cui Jinze photo,1997,,0,0,0,0,0,0,1,0,?,0,0,0,0,0,0,1,
Chenghuangmiao,芮城城隍廟,芮城城隍庙,Chenghuangmiao,城隍廟,城隍庙,Ruicheng_Chenghuangmiao,芮城城隍庙,芮城城隍庙,5,249,55,,Chenghuangmiao,Ancient Architure Site/Group in Fencheng,,,,,,,,,,,,,大殿面宽五间，进深三间，单檐歇山顶。前檐柱头斗栱五铺作，双下昂，昂为劈竹式，蚂蚱形耍头,*,,,,,,,,,,,,,,,,,,
Wangmiao,昭澤王廟,昭泽王庙,Wangmiao,王廟,王庙,Zhaoze_Wangmiao,昭泽王庙,昭泽王庙,6,395,98,,Zhaozewangmiao,Wang Temple in Lingze,,,,,,,,,,,could not find,,Main Hall from 1187; see: http://www.sxcr.gov.cn/wmsx/show.php?itemid=1128,*,,,,,,,,,,,,,,,,,,
Gujianzhuqun,汾城古建筑群,汾城古建筑群,Gujianzhuqun,古建筑群,古建筑群,Fencheng_Gujianzhuqun,汾城古建筑群,汾城古建筑群,6,384,87,,Gujianzhu,Faxing Monastery,,,,,,,,,,,,,"not listed separately in 中國 文物 地圖集, unknown which building is Jin",n/a?,,,,,,,,,,,,,,,,,,
Lingzewangmiao,靈澤王廟 / 太平龍王廟,灵泽王庙 / 太平龍王廟,Lingzewangmiao,王廟 / 太平龍王廟,王庙 / 太平龍王廟,Lingzewangmiao_or_Taiping_Longwangmiao,灵泽王庙 / 太平龍王廟,灵泽王庙 / 太平龍王廟,6,373,76,,Taiping Longwangmiao,Chongqing Monastery,,,,,,,,,,,could not find,,"Also called: 太平龍王廟 Main Hall from 1210; see: 中國 文物 地圖集 山西分冊, 中,278",*,,,,,,,,,,,,,,,,,,
Faxingsi,法興寺,法兴寺,Zhengdian,正殿,正殿,Faxingsi_Zhengdian,法兴寺正殿,法兴寺正殿,3,106,54,Main Hall,Faxingsi_Zhengdian,Tianwang Monastery,,,,,,1100-1125,1100,1125,35.98437778,112.9065806,"35˚ 59' 03.76"" N (google earth-satellite confirmation)","112˚ 54' 23.69"" E",song elements rebuilt--exclude?,1997?,,0,x,0,0,0,1,1,0,x,0,0,1,2,0,0,1,
Chongqingsi,崇慶寺,崇庆寺,Qianfodian,千佛殿,千佛殿,Chongqingsi_Qianfodian,崇庆寺千佛殿,崇庆寺千佛殿,4,98,20,l000 Buddhas Hall,Qianfodian,Zhengjue Monastery,,,,,,1016,1016,1016,35.98058333,112.9598,35˚58'.835 N (Garmin),"112˚ 57.588"" E ",,"1998, 2010","Axis: c, roof style: h/g, front façade: 40' 11"", side: 40' 4""",0,0,0,0,0,1,1,0,1,0,0,1,1,0,1,0,3
Chongqingsi,崇慶寺,崇庆寺,Sandashidian,三大士殿,三大士殿,Chongqingsi_Sandashidian,崇庆寺三大士殿,崇庆寺三大士殿,,,,Sandashi Hall,Sandashidian,Tangdi Temple in Xiajiao,,,,,,1079,1079,1079,35.98063333,112.9596333,N 35° 58.838' (±23ft),E 112° 57.578' (±23ft),,,"Axis: c, roof style: o-g, front façade: 31' 3"", side: 25' 6""",0,0,0,0,0,?,?,?,1,0,1,0,1,0,1,0,3
Chongqingsi,崇慶寺,崇庆寺,Shidiyanjundian,十帝閻君殿,十帝阎君殿,Chongqingsi_Shidiyanjundian,崇庆寺十帝阎君殿,崇庆寺十帝阎君殿,,,,Ten Kings of Hell Hall,Shidiyanjundian,Kaifu Monastery,,,,,,,,,,,,,,,,,,,,,,,,,,,,,,,,
Tianwangsi,天王寺,天王寺,Zhongdian,中殿,中殿,Tianwangsi_Zhongdian,天王寺中殿,天王寺中殿,6,396,99,Middle Hall,Zhongdian ,Dongyue Temple in Runcheng/Dongyue Temple in Duncheng,,,,,,1125-1234,1125,1234,36.11731667,112.8746333,36˚ 7.039' (Garmin),112˚ 52.478',Middle and Back Halls Jin: 现仅存中殿、后殿，有关专家从梁架结构和斗拱构件认证属金代建筑遗存,2010,,0,0,0,0,0,1,0,1,?,?,?,?,1,0,1,0,
Tianwangsi,天王寺,天王寺,Houdian ,後殿,後殿,Tianwangsi_Houdian,天王寺後殿,天王寺後殿,6,396,99,Back Hall,Houdian,Buer Monastery,,,,,,1125-1234,1125,1234,36.11753333,112.8747333,36˚ 7.052' (Garmin),112˚ 52.484',Middle and Back Halls Jin: 现仅存中殿、后殿，有关专家从梁架结构和斗拱构件认证属金代建筑遗存,2010,,http://www.sxcr.gov.cn/wmsx/show.php?itemid=1124,,,,,,,,,,,,,,,,
Zhengjuesi,正覺寺,正觉寺,Zhengjuesi,正覺寺,正觉寺,Zhengjuesi,正觉寺,正觉寺,5,228,34,,Zhengjuesi,Guanwang Temple,,,,,,,,,,,,,,1997,,0,0,0,0,0,1,0,1,?,0,1,0,1,1,0,1,
Tangdimiao,下交湯帝廟,下交汤帝庙,Baidian,拜殿,拜殿,Xiajiao_Tangdimiao_Baidian,下交汤帝庙拜殿,下交汤帝庙拜殿,6,357,60,"Offering Hall, Stage Jin ",Baidian ,Dongyue Temple in Yuquan,,,,,,1213,1213,1213,35.41436667,112.3568333,35˚ 24.862,112˚ 21.410,offering hall originally a stage from Jin dynasty,2010,,,0,1,0,1,1?,0,1,1,0,1,0,1,1,1,0,
Kaifusi,開福寺,开福寺,Xiandian,獻殿,獻殿,Kaifusi_Xiandian,开福寺獻殿,开福寺獻殿,6,371,74,Offering Hall,Xiandian,Yuhuang Temple in Shizhang,,,,,,1161-1190,1161,1190,35.4803,112.4226,35˚ 28.818' (Garmin),112˚ 25.356',"Offering Hall is Jin Dading period (1161-1190) see: 中國 文物 地圖集 山西分冊, 中, 500 ",*,,0,0,0,1,1,1,0,1,1,0,1,0,1,1,1,0,
Dongyuemiao,潤城東岳廟 / 屯城東岳廟,润城东岳庙 / 屯城東岳廟,Dongyuemiao,東岳廟 / 東岳廟,东岳庙 / 東岳廟,Runcheng_Dongyuemiao_or_Tuncheng_Dongyuemiao,润城东岳庙 / 屯城東岳廟,润城东岳庙 / 屯城東岳廟,6,375,78,Tianjidian,Dongyuemiao or Tuncheng Dongyuemiao,Baiyu Palace ,,,,,,1199-1208,1199,1208,35.55121667,112.5350833,35˚ 33.084' (Garmin),112˚ 32.111',"天齊殿from Jin 1199-1208, see: 中國 文物 地圖集 山西分冊, 中, 500/天齊殿from Jin 1199-1208, see: 中國 文物 地圖集 山西分冊, 中, 500/天齊殿from Jin 1199-1208, see: 中國 文物 地圖集 山西分冊, 中, 500/天齊殿from Jin 1199-1208, see: 中國 文物 地圖集 山西分冊, 中, 500/",*,,0,0,0,0,0,1,0,1,1,0,1,0,3,1,1,0,
Buersi,不二寺,不二寺,Buersi,不二寺,不二寺,Buersi,不二寺,不二寺,6,397,100,Main Hall: Moved from original location,Buersi,Longyan Monastery,,,,,,,,,38.0510217,112.6602917,"38˚ 03' 06.13"" N (google earth-satellite confirm)","112˚ 39' 37.05"" E",,1998,,0,0,0,1,1,1,0,1,1,0,1,0,1,0,0,1,
Guanwangmiao,關王廟,关王庙,Guanwangmiao,關王廟,关王庙,Guanwangmiao,关王庙,关王庙,4,99,21,,Guanwangmiao,Erxian Temple in Xiaohuiling,,,,,,,,,37.92066667,113.6196667,37˚ 55.24' N (Magellan-could not verify w/ satellite),113˚ 37.18 E,"only angled bracket arms are bevelled, not linggong",2001,,1,0,1,0,1,1,0,1,?,0,0,0,0,0,0,1,
Dongyuemiao,玉泉東岳廟,玉泉东岳庙,Dongyuemiao,東岳廟,东岳庙,Yuquan_Dongyuemiao,玉泉东岳庙,玉泉东岳庙,6,376,79,,Dongyuemiao,Cuifujun Temple,,,,,,1125-1234,1125,1234,35.68258333,113.19005,35˚ 40.955 (Garmin),113˚ 11.403,"Main Hall and East Ear hall (耳殿) Jin, see 中國 文物 地圖集 山西分冊, 中, 513",2010,"complex locked, measured back of hall",0,0,0,0,0,0,0,1,1,0,1,0,1,1,0,1,
Yuhuangmiao,石掌玉皇廟,石掌玉皇庙,Yuhuangmiao,玉皇廟,玉皇庙,Shizhang_Yuhuangmiao,石掌玉皇庙,石掌玉皇庙,6,377,80,,Yuhuangmiao,Erxian Temple in Xixi,,,,,,1125-1234,1125,1234,35.7257,113.33805,35˚ 43.542' (Garmin),113˚ 20.288',"Main Hall Jin, see 中國 文物 地圖集 山西分冊, 中, 513-514",*,,0,0,1,1,1,1,0,1,1,0,1,0,1,0,1,0,
Baiyugong,白玉宮,白玉宫,Zhengdian,正殿,正殿,Baiyugong_Zhengdian,白玉宫正殿,白玉宫正殿,6,386,89,Main Hall,Zhengdian ,Sanjiaotang in Sirun,,,,,,1212,1212,1212,35.65815,113.2410667,35˚ 39.489',113˚ 14.464',"Main Hall from 1212 see: 中國 文物 地圖集, 中, 513 23 - C 10",2010,"Axis: c, roof style: h/g, front façade: 26' 10"", side: 24' 4""",0,0,0,1,1,1,0,1,1,0,1,0,1,1,1,0,3
Baiyugong,白玉宮,白玉宫,Shanmen,山門,山门,Baiyugong_Shanmen,白玉宫山門,白玉宫山門,,,,Mountain Gate,Shanmen,Erxian Temple in Nanshentou,,,,,,,,,35.657467,113.2413167,35° 39.448' (±18ft),113° 14.479' (±18ft),,,"Axis: c, roof style: h/g",,,,,,,,,,,,,,,,,
Baiyugong,白玉宮,白玉宫,Sanxiandian,三仙殿,三仙殿,Baiyugong_Sanxiandian,白玉宫三仙殿,白玉宫三仙殿,,,,,Sanxiandian,Nanjixiang Monastery,,,,,,,,,,,,,,,"Axis: c, roof style: o-g, front façade: 28' 1"", side: 25' 11""",,,,,,,,,,,,,,,,,
Baiyugong,白玉宮,白玉宫,Houdian,后殿,后殿,Baiyugong_Houdian,白玉宫后殿,白玉宫后殿,,,,,Houdian,Beijixiang Monastery,,,,,,,,,35.65833,113.240967,35° 39.500' (±23ft),113° 14.458' (±23ft),,,"Axis: c, roof style: o-g, front façade: 30' 7""",0,0,1,0,1,1,0,1,1,0,0,1,2,0 (animal heads),1,0,
Longyansi,龍岩寺,龙岩寺,Longyansi,龍岩寺,龙岩寺,Longyansi,龙岩寺,龙岩寺,5,229,35,,Longyansi,Beijinxiang Monastery,,,,,,,,,,,,,,*,,,,,,,,,,,,,,,,,,
Erxianmiao,小會嶺二仙廟,小会岭二仙庙,Erxianmiao,二仙廟,二仙庙,Xiaohuiling_Erxianmiao,小会岭二仙庙,小会岭二仙庙,5,265,71,,Erxianmiao,Dawang Temple in Yangquan (Great King Temple in Yangquan),,,,,,960-1125,960,1125,35.67861667,113.1687333,35˚ 40.717' N (Garmin),113˚ 10.124' E,,2010,,0,0,1,0,1,1,1,0,1,0,0,1,1,1,1,0,
Cuifujunmiao,陵川崔府君廟,陵川崔府君庙,Cuifujunmiao,崔府君廟,崔府君庙,Lingchuan_Cuifujunmiao,陵川崔府君庙,陵川崔府君庙,5,266,72,Shanmen Jin,Cuifujunmiao,Youxian Monastery,,,,,,1125-1234,1125,1234,35.79946667,113.1166,35˚ 47.968 N,113˚ 06.996 E,,2009,,0,0,0,0,0,1,1,0,1,0,0,1,1,1,1,0,
Erxianmiao,西溪二仙廟,西溪二仙庙,Erxianmiao,二仙廟后殿,二仙庙后殿,Xixi_Erxianmiao,西溪二仙庙后殿,西溪二仙庙后殿,5,267,73,Back Hall Jin,Erxianmiao,Erxian Temple in Xilimen,,,,,,,,,35.7605,113.2553333,35˚ 45.63 N,113˚ 15.32 E,,2004,,0,0,0,1,2,1,0,1,1,0,1,0,2,0,0,1,
Sanjiaotang,寺潤三教堂,寺润三教堂,Sanjiaotang,三教堂,三教堂,Sirun_Sanjiaotang,寺润三教堂,寺润三教堂,6,391,94,Main Hall,Sanjiaotang,Erxian Palace in Zhongping,,,,,,1125-1234,1125,1234,35.83021667,113.18035,35˚ 49.813',113˚ 10.821,"Main Hall Jin, see: http://www.sxcr.gov.cn/wmsx/show.php?itemid=1007",2010,,0,0,0,1,1,1,0,1,1,0,1,0,1,1,1,0,
Erxianmiao,南神頭二仙廟,南神头二仙庙,Erxianmiao,二仙廟,二仙庙,Nanshentou_Erxianmiao,南神头二仙庙,南神头二仙庙,6,390,93,Main Hall,Erxianmiao,Erlang Temple,,,,,,960-1125,960,1125,35.69555,113.35965,35˚ 41.733',113˚ 21.579',Main Hall from Jin; see: http://www.huaxia.com/zhsx/sxsy/wwzy/12/1256259.html,2010,,0,0,1,1,1,1,0,1,1,0,1,0,1,1,1,0,
Nanjixiangsi,南吉祥寺,南吉祥寺,Zhongdian,中殿,中殿,Nanjixiangsi_Zhongdian,南吉祥寺中殿,南吉祥寺中殿,,,,Middle Hall,Zhongdian,Chongming Monastery,,,,,,1030,1030,1030,35.77675,113.12075,35˚ 46' 33.36' N  (google earth-fuzzy satellite),"113˚ 7' 15.40"" E",,1998,,0,0,1,0,1,1,1,0,1,1,0,0,1,1,1,0,
Beijixiangsi,北吉祥寺,北吉祥寺,Tianwangdian,天王殿,天王殿,Beijixiangsi_Tianwangdian,北吉祥寺天王殿,北吉祥寺天王殿,4,101,23,Front Hall,Tianwangdian,Kaihua Monastery,,,,,,960-1125,960,1125,35.79754167,113.1118472,"35˚ 47' 50.68"" N (google earth-Cui Jinze and fuzzy sat.)","113˚ 06' 42.50"" E",could these xiaang have been recarved?,1998,,0,0,0,0,0,1,0,1,1,0,1,0,1,1,1,0,
Beijixiangsi,北吉祥寺,北吉祥寺,Zhongdian,中殿,中殿,Beijixiangsi_Zhongdian,北吉祥寺中殿,北吉祥寺中殿,4,101,23,Middle Hall,Zhongdian ,Mei Hemitage,,,,,,960-1125,960,1125,35.79782778,113.1118667,"35˚ 47' 51.88"" N (google earth-Cui Jinze and fuzzy sat.)","113˚ 06' 42.67"" E",nidaogong chamfered--did not include,,,0,0,0,0,0,1,0,1,1,0,1,0,2,0,1,0,
Dawangmiao,陽泉大王廟,陽泉大王庙,Dawangmiao,大王廟,大王庙,Yangquan_Dawangmiao,陽泉大王庙,陽泉大王庙,5,255,61,,Dawangmiao,Tianning Monastery in Nantong,,,,,,,,,,,,,寢宮from Jin--1172? Ic brackets have xiegong,*,,,,,,,,,,,,,,,,,,
Youxiansi,游仙寺,游仙寺,Qiandian,前殿,前殿,Youxiansi_Qiandian,游仙寺前殿,游仙寺前殿,5,270,76,Front Hall/Middle Hall Jin,Qiandian,Xuanmiao Belvederi in Suzhou,,,,,,990-994,990,994,35.74008889,112.929389,"35˚ 44' 25.08"" N (google earth-satellite confirm)","112˚ 55' 45.86"" E",,,,0,0,0,0,1,1,1,0,1,0,0,1,1,1,1,0,
Youxiansi,游仙寺,游仙寺,Zhongdian,中殿,中殿,Youxiansi_Zhongdian,游仙寺中殿,游仙寺中殿,5,270,76,Middle Hall/Back Hall Jin/Yuan,Zhongdian ,Qiao Tower in Yuanzhou,,,,,,1125-1234,1125,1234,35.74030278,112.9294028,"35˚ 44' 25.96"" N (google earth-satellite confirm)","112˚ 55' 45.98"" E",linggong beveled mangong chamfered,,,0,0,0,1,1,1,0,1,？,0,1,0,1,0,1,1,
Erxianmiao,西李門二仙廟,西李门二仙庙,Zhongdian,中殿,中殿,Xilimen_Erxianmiao_Zhongdian,西李门二仙庙中殿,西李门二仙庙中殿,6,374,77,Middle Hall Jin (1157),Erxianmiao,Kaiyuan Monastery,,,,,,1157,1157,1157,35.7030833,112.9776,35˚ 42.185' N (Garmin),112˚ 58.656' E,,2009,,0,0,0,0,1,1,0,1,1,0,1,0,2,0,0,1,
Erxianmiao,西李門二仙廟,西李门二仙庙,Houdian,后殿,后殿,Xilimen_Erxianmiao_Houdian,西李门二仙庙后殿,西李门二仙庙后殿,6,374,77,Back Hall Jin with extensive repairs,Erxianmiao,Wen Temple in Zhengding,,,,,,1125-1234,1125,1234,35.7032333,112.977666,35˚ 42.194' N (Garmin),112˚ 58.660' E,,2009,,0,0,0,0,1,1,0,1,?,0,1,0,1,0,0,1,
Erxiangong,中坪二仙宮,中坪二仙宫,Shanmen,山門,山門,Zhongping_Erxiangong_Shanmen,中坪二仙宫山門,中坪二仙宫山門,6,382,85,Shanmen (Jin dynasty),Erxiangong Shanmen,Longxing Monastery,,,,,,1125-1234,1125,1234,35.8059,113.07,35˚ 48.354 N (Garmin),113˚ 04.200' E,this building looks later--yuan?,2009,,0,0,0,0,1,1,0,1,?,0,1,0,2,0,1,0,
Erxiangong,中坪二仙宮,中坪二仙宫,Zhengdian,正殿,正殿,Zhongping_Erxiangong_Zhengdian,中坪二仙宫正殿,中坪二仙宫正殿,,,,Main Hall-Jin with Yuan repairs,Erxiangong Shanmen,Geyuan Monastery,,,,,,1125-1234,1125,1234,35.8061166,113.069833,35˚ 48.367 N (Garmin),113˚ 04.190' E,,,,0,0,0,0,1,1,0,1,1,0,1,0,1,0,0,1,
Erlangmiao,二郞廟,二郞庙,Erlangmiao,二郞廟,二郞庙,Erlangmiao,二郞庙,二郞庙,6,387,90,Stage Jin dynasty,Erlangmiao,Dule Monastery,,,,,,1125-1234,1125,1234,35.86535,112.8704,35˚ 51.921 N (Garmin),112˚ l51.224 E,earliest stage,2009,,0,0,0,0,2,?,0,1,0,0,1,0,1,1,0,?,
Chongmingsi,崇明寺,崇明寺,Zhongdian,中殿,中殿,Chongmingsi_Zhongdian,崇明寺中殿,崇明寺中殿,5,268,74,Middle Hall 10th century,Zhongdian ,Chengtang Temple,,,,,,,,,35.71439722,113.0084611,"35˚ 42' 51.83"" N (google earth-satellite confirm)","113' 00' 30.46"" E",,1998,,0,0,0,0,1,0,1,0,?,1,0,0,2,0,0,1,
Kaihuasi,開化寺,开化寺,Kaihuasi,開化寺,开化寺,Kaihuasi,开化寺,开化寺,5,269,75,,Daxiongbaodian,Kaishan Monastery,,,,,,,,,35.87018611,113.0370944,"35˚ 52' 12.67"" N (google earth-satellite confirm)","113˚ 02' 13.54"" E",,1997,,0,0,0,0,0,1,0,1,?,0,0,1,1,1,1,0,
Meian,梅庵,梅庵,Meian,梅庵,梅庵,Meian,梅庵,梅庵,4,109,31,,Meian,Home of the Two Cheng,,,,,,996,996,996,,,,,"Zushidian thought to retain Song style (ZGMSCD, 842)",*,,,,,,,,,,,,,,,,,,
Tianningsi,南通天寧寺,南通天宁寺,Tianningsi,天寧寺,天宁寺,Nantong_Tianningsi,南通天宁寺,南通天宁寺,6,510,Ⅲ－213,,Tianningsi,Jidu Temple,,,,,,,,,,,,,Song-Yuan style; see: ZGMSCD 320,n/a?,,,,,,,,,,,,,,,,,,
Xuanmiaoguan,蘇州玄妙觀,苏州玄妙观,Sanqingdian,三清殿,三清殿,Suzhou_Xuanmiaoguan_Sanqingdian,苏州玄妙观三清殿,苏州玄妙观三清殿,2,22,7,,Xuanmiaoguan Sanqingdian,Shaolin Monastery,,,,,,1179,1179,1179,31.31431667,120.6216666,31˚ 18.895' N (Garmin),120˚ 37.307' E,large-scale Song building,2009,for date see: zgmscd 489,0,0,0,1,2?,?,1,0,?,0,1,0,2,0,0,1,
Qiaolou,袁州譙樓,袁州谯楼,Qiaolou,譙樓,谯楼,Yuanzhou_Qiaolou,袁州谯楼,袁州谯楼,6,606,309,,Qiaolou,Baoguo Monastery,,,,,,,,,,,,,earliest observatory; see: http://big5.china.com.cn/overseas/txt/2004-12/09/content_5724640.htm,n/a,,,,,,,,,,,,,,,,,,
Kaiyuansi,開元寺鐘樓,开元寺钟楼,Zhonglou,鐘樓,钟楼,Kaiyuansi_Zhonglou,开元寺钟楼,开元寺钟楼,3,105,53,Bell Tower,Zhonglou,Dafo Monastery in Zhangye (Great Buddha Monastery in Zhangye),,,,,,898,898,898,,,38˚ 08.39' N (Magellan),114˚ 33.94' E,tang first floor--compare to Wenmiao?,1999,for date see: zgmscd 104,n/a,,,,,,,,,,,,,,,,
Wenmiao,正定文廟,正定文庙,Dachengdian,大成殿,大成殿,Zhengding_Wenmiao_Dachengdian,正定文庙大成殿,正定文庙大成殿,4,91,13,,Wenmiao Dachengdian,Hualin Monastery,,,,,,907-960,907,960,38.14383333,114.561,38˚ 08.63' N (Magellan),114˚ 33.66' E,,1999,,0,0,0,0,0,0,1,0,?,0,0,0,0,0,0,?,
Longxingsi,隆興寺,隆兴寺,Tianwangdian,天王殿,天王殿,Longxingsi_Tianwangdian,隆兴寺天王殿,隆兴寺天王殿,1,89,42,,Tianwangdian,Yuanmiao Belvederi,,,,,,982,982,982,38.14109167,114.5763528,38˚ 08' 27.97' N (google earth 9/2009),"114˚ 34' 34.88"" E",late 10th century (982?); modified in 1780. Early mojiao gong similar to Dulesi,1999?,zgmscd 105-106,1,0,0,0,0,0,1,0,1,0,0,0,0,0,1,0,
Longxingsi,隆興寺,隆兴寺,Monidian,摩尼殿,摩尼殿,Longxingsi_Monidian,隆兴寺摩尼殿,隆兴寺摩尼殿,1,89,42,,Monidian,Fengguo Monastery,,,,,,1052,1052,1052,38.14256944,114.5762444,"38˚ 08' 33.25"" N (google earth 9/2009)","114˚ 34' 34.48"" E",1052 with angled bracket arms; qinmian ang appears to be recarved,,,1,1,1,0,1,1,1,1,1,0,1,1,1,1,1,1,
Longxingsi,隆興寺,隆兴寺,Zhuanluncangge,轉論藏閣,转论藏阁,Longxingsi_Zhuanluncangge,隆兴寺轉論藏閣,隆兴寺轉論藏閣,1,89,42,Revolving Sutra Repository,Zhuanluncangge,Zhaoren Monastery,,,,,,1050-1100,1050,1100,38.14345556,114.5761833,"38˚ 08' 36.44"" N (google earth 9/2009)","114˚ 34' 34.26"" E",upper eaves bracket sets;,,2nd half of 11th century; see Qi Yingtao,0,0,0,1?,2,1,0,1,1,0,0,1,1,1,0,1,
Longxingsi,隆興寺,隆兴寺,Cishige,慈氏閣,慈氏阁,Longxingsi_Cishige,隆兴寺慈氏閣,隆兴寺慈氏閣,1,89,42,Maitreya Pavilion,Cishige,Fawang Temple,,,,,,1050-1100,1050,1100,38.14363611,114.5765111,"38˚ 08' 37.09"" N (google earth 9/2009)","144˚ 34' 35.47"" E",upper eaves bracket sets,,2nd half of 11th century; see Qi Yingtao,0,0,0,1?,2,1,0,1,?,0,0,1,2,0,0,1,
Geyuansi,閣院寺,阁院寺,Geyuansi,文殊殿,文殊殿,Geyuansi_Wenshudian,阁院寺文殊殿,阁院寺文殊殿,4,95,17,,Geyuansi,Gesar Thirty General General Pagoda and Dana Monastery,,,,,,977,977,977,39.353,114.681833,39˚ 21.18' N (Magellan),114˚ 40.91' E,Liao building with mojiaogong but no fan brackets; cloud bracket arms make it jixin,1999,,0,1,0,0,?,1,0,1,1,0,0,0,0,0,0,1,
Dulesi,獨樂寺,独乐寺,Shanmen,山門,山门,Dulesi_Shanmen,独乐寺山門,独乐寺山門,1,84,37,,Shanmen,Yuhuang Temple in Bucun,,,,,,984,984,984,40.0438,117.3966833,40˚ 02.645' N (Garmin),117˚ 23.800' N,984,2008,,0,1,0,0,1,0,1,0,1,0,0,0,0,0,0,1,
Dulesi,獨樂寺,独乐寺,Guanyinge,觀音閣,观音阁,Dulesi_Guanyinge,独乐寺观音阁,独乐寺观音阁,1,84,37,,Guanyinge,Biyun Monastery in Xiaozhangcun,,,,,,984,984,984,40.04408333,117.3966666,40˚ 02.628' N (Garmin),117˚ 23.801' E,984,2008,,0,1,0,0,1,0,1,0,1,1,0,0,2,0,0,1,
Chengtangmiao,成湯廟,成汤庙,Shanmen,山門,山門,Chengtangmiao_Shanmen,成汤庙山门,成汤庙山门,6,327,30,,Shanmen,Chongjiao Monastery,,,,,,,,,,,,,http://www.gutrip.com/html/yuyin/hebei/handan/2009/0313/3901.html,*,,,,,,,,,,,,,,,,,,
Kaishansi,開善寺,开善寺,Zhengdian,正殿,正殿,Kaishansi_Zhengdian,开善寺正殿,开善寺正殿,4,96,18,Main Hall,Zhengdian ,Fujun Temple in Zhangzi,,,,,,,,,39.2470666,115.9872,39˚ 14.824' N (Garmin),115˚ 59.232' E,"Liao building with mojiaogong, again no fan brackets",2009,,0,1,0,0,0,1,0,1,1,0,0,0,0,0,0,1,
Liang_Cheng_guli,兩程故裡,两程故里,Liang Cheng guli,兩程故裡,两程故里,Liang Cheng guli,两程故里,两程故里,6,627,330,,guli,Cuifujun Temple in Qinshui,,,,,,,,,,,,,first built in 1131?; rebuilt in the Yuan; expanded in the Ming,n/a,,,,,,,,,,,,,,,,,,
Jidumiao,濟瀆廟寢宮,济渎庙寝宫,Qingong,寢宮,寝宫,Jidumiao_Qingong,济渎庙寝宫,济渎庙寝宫,4,107,29,,Qingong,Shengtian Monastery in Langbi,,,,,,960-1000,960,1000,35.1095333,112.576583,35˚ 06.572' N (Garmin),112˚ 34.595' E,qinmian style youang,2009,,0,0,0,1,1,1,1,0,1,0,?,0,0,0,0,1,
Shaolinsi,少林寺初祖庵,少林寺初祖庵,Chuzuan,初祖庵,初祖庵,Shaolinsi_Chuzuan,少林寺初祖庵,少林寺初祖庵,4,89,11,,Chuzuan,Longyan Moastery in Qinshui,,,,,,1125,1125,1125,34.50950278,112.9291167,"34˚ 30'34.21"" (google earth 7/5/2010)","112˚ 55' 44.82""","1125-contrast with Fengxianguan in Jiyuan, Henan as representing YZFS",1998?,,0,0,0,1,2,0,0,1,1,0,1,0,1,0,0,1,
Baoguosi,保國寺,保国寺,Daxiongbaodian,大雄寶殿,大雄宝殿,Baoguosi_Daxiongbaodian,保国寺大雄宝殿,保国寺大雄宝殿,1,90,43,,Daxiongbaodian,Dabei Cloister in Quwo,,,,,,1013,1013,1013,29.983,121.516833,29˚ 58.98' N  (Magellan),"121˚ 31.01' E (Magellan) 121˚ 30' 57.99"" E (google earth)",early 11th cen. Example of style in YZFS,1999,,0,0,0,1,2,0,1,0,1,0,1,0,2,0,0,1,
Dafosi,張掖大佛寺,张掖大佛寺,Dafosi,大佛寺,大佛寺,Zhangye_Dafosi,张掖大佛寺,张掖大佛寺,4,112,34,,Dafosi,Xiangfan Monastery in Qixian,,,,,,,,,,,,,,*?,,,,,,,,,,,,,,,,,,
Hualinsi,華林寺,华林寺,Dadian,大殿,大殿,Hualinsi_Dadian,华林寺大殿,华林寺大殿,2,19,4,Main Hall,Dadian,Guanghua Monastery,,,,,,964,964,964,26.103525,119.291925,"26˚ 06' 12.69"" N (google earth 9/2009)","119˚ 17' 30.93"" E ","rebuilt in new location, but has Dafoyang elements from 10th century",2004,for date see: zgmscd 471,0,0,0,1,2,0,1,0,1,0,0,0,3,1,0,1,
Yuanmiaoguan,莆田元妙觀,莆田元妙观,Sanqingdian,三清殿,三清殿,Putian_Yuanmiaoguan_Sanqingdian,莆田元妙观三清殿,莆田元妙观三清殿,4,103,25,,Yuanmiaoguan Sanqingdian,,,,,,,1015,1015,1015,25.4333333,119.018666,"25˚ 26' N (Magellan, no satellite confirm)",119˚ 01.12 E,,2004,,0,0,0,1,1,0,1,0,?,0,?,0,3,1,0,1,
Fengguosi,奉國寺,奉国寺,Daxiongdian,大雄殿 also 大雄寶殿,大雄殿 also 大雄宝殿,Fengguosi_Daxiongdian,奉国寺大雄殿,奉国寺大雄殿,1,86,39,,Daxiongdian,,,,,,,1020,1020,1020,41.5430333,121.2424167,41˚ 32.582' N (Garmin),121˚ 14.545' E,"Daxiongdian: 開 泰 九 年 正 月 十 四 起 工 (Feb. 10, 1020) ",2008,,0,0,0,1?,1,1,1,0,1,1,0,0,2,0,0,1,
Zhaorensi,昭仁寺,昭仁寺,Dadian,大殿,大殿,Zhaorensi_Dadian,昭仁寺大殿,昭仁寺大殿,3,109,57,Main Hall Tang?,Dadian,,,,,,,618-907,618,907,,,"35˚ 12' 15.89"" N  found on google earth, no satellite ","107˚ 47' 50.63"" E ","date of main hall not listed in ZGMSCD, p. 1026,--Tang?",*,,,,,,,,,,,,,,,,,,
Fawangmiao,法王廟,法王庙,Fawangmiao,法王廟,法王庙,Fawangmiao,法王庙,法王庙,6,779,482,,Fawangmiao,,,,,,,,,,,,,,Yuan-style back offering hall; see: http://www.hancheng.gov.cn/hcly/view.aspx?id=6302,n/a?,,,,,,,,,,,,,,,,,,
Gesaer,格薩爾三十大將軍靈塔和達那寺,格萨尔三十大将军灵塔和达那寺,Gesaer_30dajiangjunlingta,格薩爾三十大將軍靈塔和達那寺,格萨尔三十大将军灵塔和达那寺,Gesaer_30dajiangjunlingtahedanasi,格萨尔三十大将军灵塔和达那寺,格萨尔三十大将军灵塔和达那寺,6,805,508,30 Great General's pagodas,30dajiangjunlingta,,,,,,,,,,,,,,uncertain date of individual buildings,n/a?,,,,,,,,,,,,,,,,,,
Yuhuangmiao,布村玉皇廟,布村玉皇庙,Qiandian,前殿,前殿,Bucun_Yuhuangmiao_Qiandian,布村玉皇庙前殿,布村玉皇庙前殿,,,,Yuhuangmiao Front Hall,Qiandian,,,,,,,907-960,907,960,36.0078,112.9334667,36˚ 00.468' (Garmin),112˚ 56.008',Five Dynasties?,2010,,0,0,0,0,0,0,1,0,?,0,0,0,0,1,1,0,
Yuhuangmiao,布村玉皇廟,布村玉皇庙,Houdian,后殿,后殿,Bucun_Yuhuangmiao_Houdian,布村玉皇庙后殿,布村玉皇庙后殿,,,,Yuhuangmiao Back Hall,Houdian,,,,,,,1125-1234,1125,1234,36.00795,112.9334667,36˚ 00.468' (Garmin),112˚ 56.008,Jin,2010,,0,0,0,0,0,1,0,1,?,,,,1,1?,0,1,
Xiaozhangcun,小張村碧雲寺,小张村碧云寺,Biyunsi,碧雲寺,碧云寺,Xiaozhangcun_Biyunsi,小张村碧云寺,小张村碧云寺,,,,,Biyunsi,,,,,,,,,,36.17146667,112.8389833,,,,2010,,,,,,,,,,,,,,,,,,
Chongjiaosi,崇教寺,崇教寺,Zhengdian,正殿,正殿,Chongjiaosi_Zhengdian,崇教寺正殿,崇教寺正殿,,,,Main Hall Song?,Zhengdian,,,,,,,978-1125,978,1125,36.34316667,113.11315,36˚ 20.590',113˚ 06.789',"bracketing looks Jin,Main Hall interior depth: 27' 3"", interior height: 22' 8""",2010,,1,0,0,0,0,1,0,1,？,0,1,0,2,1,1,0,3
Chongjiaosi,崇教寺,崇教寺,Dafodian,大佛殿,大佛殿,Chongjiaosi_Dafodian,崇教寺大佛殿,崇教寺大佛殿,,,,Great Buddha Hall,Dafodian,,,,,,,978,978,978,36.34316667,113.11315,N 36° 20.590' (±23ft),E 113° 6.789' (±23ft),,,"Axis: c, roof style: flush gable, front façade: 36' 1"", 3 bays",,,,,,,,,,,,,,,,,
Chongjiaosi,崇教寺賜額牒文碣,崇教寺赐额牒文碣,Ciediewenjie,賜額牒文碣,赐额牒文碣,Chongjiaosi_Ciediewenjie,崇教寺赐额牒文碣,崇教寺赐额牒文碣,,,,Ciediewen_Plaque,Ciediewenjie ,,,,,,,984,984,984,,,,,,,,,,,,,,,,,,,,,,,,
Chongjiaosi,崇教寺,崇教寺,Shanmen,山門,山门,Chongjiaosi_Shanmen,崇教寺山門,崇教寺山門,,,,,Shanmen,,,,,,,1644-1912,1644,1912,36.3429,113.1132,N 36° 20.574' (±15ft),E 113° 6.792' (±15ft),,,"Axis: c, front façade: 32' 3"", side: 16' (rough measurements)",0,0,0,1,1,1,0,1,1,0,1,0,2,0,1,0,
Chongjiaosi,崇教寺,崇教寺,Zuoerdian,西耳殿,西耳殿,Chongjiaosi_Zuoerdian,崇教寺左耳殿,崇教寺左耳殿,,,,West Ear Hall,Zuoerdian,,,,,,,1644-1912,1644,1912,,,,,glazed roof tiles on ear halls,,"front façade: 20' 4""",,,,,,,,,,,,,,,,,
Chongjiaosi,崇教寺,崇教寺,Youerdian,東耳殿,東耳殿,Chongjiaosi_Youerdian,崇教寺右耳殿,崇教寺右耳殿,,,,East Ear Hall,Youerdian,,,,,,,1644-1912,1644,1912,,,,,glazed roof tiles on ear halls,,,,,,,,,,,,,,,,,,,
Fujunmiao,長子縣府君廟,长子县府君庙,Fujunmiao,府君廟,府君庙,Zhangzi_Fujunmiao,长子县府君庙,长子县府君庙,,,,,Fujunmiao,,,,,,,960-1546,960,1546,36.11985,112.8771667,36˚ 07. 191',112˚ 52.630',Song? But renovated in Ming,2010,,0,0,0,？,？,1,0,1,1,0,1,0,2,0,0,1,
Cuifujunmiao,沁水崔府君廟,沁水崔府君庙,Cuifujunmiao_Fujundian,府君殿,府君殿,Qinshui_Cuifujunmiao_Fujundian,沁水崔府君庙府君殿,沁水崔府君庙府君殿,,,,Fujundian Jin,Cuifujunmiao Fujundian,,,,,,,1125-1234,1125,1234,35.63165,112.5239667,35˚ 37.899' (Garmin),112˚ 31.438,,2010,,0,0,0,0,1,1,0,1,1,0,1,1,1,1,1,0,
Shengtiansi,廊必聖天寺,廊必圣天寺,Shengtiansi,聖天寺,圣天寺,Langbi_Shengtiansi,廊必圣天寺,廊必圣天寺,,,,Main Hall,Shengtiansi,,,,,,,960-1125,960,1125,35.76526667,112.3737333,35˚ 45.916' (Garmin),112˚ 22.424',,2010,,0,0,0,0,1,1,0,1,1?,0,0,0,0,1,0,1,
Longyansi,沁水龍岩寺,沁水龙岩寺,Longyansi_Shanmen,上門,上門,Qinshui_Longyansi_Shanmen,沁水龙岩寺上門,沁水龙岩寺上門,,,,,Longyansi Shanmen,,,,,,,1125-1234,1125,1234,35.60273333,111.97115,35˚ 36.164' (Garmin),111˚ 97.115',,,,0,0,0,0,1,1,1,0,1,0,1,0,2,0,0,1,
Shundimiao ,沁水舜帝廟,沁水舜帝庙,Shundimiao_Dadian,大殿,大殿,Qinshui_Shundimiao_Dadian,沁水舜帝庙大殿,沁水舜帝庙大殿,,,,Main Hall,Shundimiao Dadian,,,,,,,1125-1234,1125,1234,35.60493333,111.97245,35˚ 36.296' (Garmin),111˚ 58.347,,,,0,0,0,0,1,1,0,1,1,0,1,0,1,0,0,1,
Dabeiyuan,曲沃大悲院,曲沃大悲院,Dabeiyuan_Guodian,過殿,过殿,Quwo_Dabeiyuan_Guodian,曲沃大悲院过殿,曲沃大悲院过殿,,,,,Dabeiyuan Guodian,,,,,,,1180,1180,1180,35.73436667,111.5450667,35˚ 44。062,111˚ 32.704',,,,0,0,0,1,1,1,0,1,1,0,1,0,2,0,0,1,
Xingfansi,祁縣興梵寺,祁县兴梵寺,Xingfansi,興梵寺,兴梵寺,Qixian_Xingfansi,祁县兴梵寺,祁县兴梵寺,,,,Zhengdian,Xingfansi,,,,,,,960-1125,960,1125,37.39033333,112.4500667,37˚ 23.420' (Garmin),112˚ 27.004',,,,0,0,0,1,1,1,0,1,1,0,0,0,0,0,0,1,
Guanghuasi,廣華寺,广华寺,Guanghuasi,廣華寺,广华寺,Guanghuasi,广华寺,广华寺,,,,,Guanghuasi,,,,,,,1125-1234,1125,1234,37.36166667,112.4942,,,,,,0,0,0,0,0,1,0,1,1,0,1,0,1,0,0,1,